[{"model": "places.place", "pk": 1, "fields": {"name": "name", "address": "", "latitude": 0.0, "longtitude": 0.0, "bookmark": []}}, {"model": "places.place", "pk": 2, "fields": {"name": "", "address": "", "latitude": 0.0, "longtitude": 0.0, "bookmark": []}}, {"model": "places.place", "pk": 3, "fields": {"name": "1938슬로우", "address": "강원도 강릉시 임영로 141번길 4-6", "latitude": 0.0, "longtitude": 0.0, "bookmark": []}}, {"model": "places.place", "pk": 4, "fields": {"name": "5구도선장", "address": "강원도 속초시 중앙부두길 51", "latitude": 0.0, "longtitude": 0.0, "bookmark": []}}, {"model": "places.place", "pk": 5, "fields": {"name": "DMZ박물관", "address": "강원도 고성군 현내면 통일전망대로 369", "latitude": 0.0, "longtitude": 0.0, "bookmark": []}}, {"model": "places.place", "pk": 6, "fields": {"name": "hj매그놀리아용평호텔앤리조트", "address": "강원도 평창군 대관령면 올림픽로 715", "latitude": 0.0, "longtitude": 0.0, "bookmark": []}}, {"model": "places.place", "pk": 7, "fields": {"name": "j카페", "address": "강원도 동해시 항골길 94", "latitude": 0.0, "longtitude": 0.0, "bookmark": []}}, {"model": "places.place", "pk": 8, "fields": {"name": "mtd버거하우스", "address": "강원도 양양군 현북면 하조대2길 48-101", "latitude": 0.0, "longtitude": 0.0, "bookmark": []}}, {"model": "places.place", "pk": 9, "fields": {"name": "SL호텔 강릉", "address": "강원도 강릉시 주문진읍 주문로 59", "latitude": 0.0, "longtitude": 0.0, "bookmark": []}}, {"model": "places.place", "pk": 10, "fields": {"name": "가을동화펜션", "address": "강원도 평창군 봉평면 흥정계곡길 72", "latitude": 0.0, "longtitude": 0.0, "bookmark": []}}, {"model": "places.place", "pk": 11, "fields": {"name": "가페 8mm", "address": "강원도 춘천시 신동면 모오리길 47-28", "latitude": 0.0, "longtitude": 0.0, "bookmark": []}}, {"model": "places.place", "pk": 12, "fields": {"name": "갈매기다방", "address": "강원도 강릉시 연곡면 영진길 63 1층", "latitude": 0.0, "longtitude": 0.0, "bookmark": []}}, {"model": "places.place", "pk": 13, "fields": {"name": "감자밭", "address": "강원도 춘천시 신북읍 신샘밭로 674", "latitude": 0.0, "longtitude": 0.0, "bookmark": []}}, {"model": "places.place", "pk": 14, "fields": {"name": "강릉 로뎀나무 펜션", "address": "강원도 강릉시 해안로 621번길 12", "latitude": 0.0, "longtitude": 0.0, "bookmark": []}}, {"model": "places.place", "pk": 15, "fields": {"name": "강산숲불닭갈비막국수", "address": "강원도 춘천시 신북읍 신샘밭로 621", "latitude": 0.0, "longtitude": 0.0, "bookmark": []}}, {"model": "places.place", "pk": 16, "fields": {"name": "강아지숲 테마파크", "address": "강원도 춘천시 남산면 충료로 437", "latitude": 0.0, "longtitude": 0.0, "bookmark": []}}, {"model": "places.place", "pk": 17, "fields": {"name": "강이네하우스", "address": "강원도 양양군 서면 상평1길 17-2", "latitude": 0.0, "longtitude": 0.0, "bookmark": []}}, {"model": "places.place", "pk": 18, "fields": {"name": "강촌잠빌펜션", "address": "강원도 춘천시 남산면 강촌로 250", "latitude": 0.0, "longtitude": 0.0, "bookmark": []}}, {"model": "places.place", "pk": 19, "fields": {"name": "개고생", "address": "강원도 원주시 천매봉길 20-9", "latitude": 0.0, "longtitude": 0.0, "bookmark": []}}, {"model": "places.place", "pk": 20, "fields": {"name": "개버랜드", "address": "강원도 강릉시 구정면 구정중앙로 155-8", "latitude": 0.0, "longtitude": 0.0, "bookmark": []}}, {"model": "places.place", "pk": 21, "fields": {"name": "거북이서프바", "address": "강원도 양양군 현남면 화상해안길 247", "latitude": 0.0, "longtitude": 0.0, "bookmark": []}}, {"model": "places.place", "pk": 22, "fields": {"name": "경강 레일바이크", "address": "강원도 춘천시 남산면 서백길 57", "latitude": 0.0, "longtitude": 0.0, "bookmark": []}}, {"model": "places.place", "pk": 23, "fields": {"name": "경포도도애견펜션", "address": "강원도 강릉시 하남길 197-15", "latitude": 0.0, "longtitude": 0.0, "bookmark": []}}, {"model": "places.place", "pk": 24, "fields": {"name": "고석정", "address": "강원도 철원군 동송읍 태봉로 1825", "latitude": 0.0, "longtitude": 0.0, "bookmark": []}}, {"model": "places.place", "pk": 25, "fields": {"name": "고심쌀롱", "address": "강원도 강릉시 사천면 진리해변길 131 2층", "latitude": 0.0, "longtitude": 0.0, "bookmark": []}}, {"model": "places.place", "pk": 26, "fields": {"name": "곰앤패들보드 캠핑장", "address": "강원도 강릉시 해안로 656-1", "latitude": 0.0, "longtitude": 0.0, "bookmark": []}}, {"model": "places.place", "pk": 27, "fields": {"name": "공지천공원", "address": "강원도 춘천시 예경춘로 880", "latitude": 0.0, "longtitude": 0.0, "bookmark": []}}, {"model": "places.place", "pk": 28, "fields": {"name": "국립화천숲속야영장", "address": "강원도 화천군 간동면 배후령길 1144", "latitude": 0.0, "longtitude": 0.0, "bookmark": []}}, {"model": "places.place", "pk": 29, "fields": {"name": "국제평화아트파크", "address": "강원도 화천군 화천읍 평화로 3518", "latitude": 0.0, "longtitude": 0.0, "bookmark": []}}, {"model": "places.place", "pk": 30, "fields": {"name": "그랑샤리오", "address": "강원도 평창군 방림면 감동지길 104", "latitude": 0.0, "longtitude": 0.0, "bookmark": []}}, {"model": "places.place", "pk": 31, "fields": {"name": "그린향펜션", "address": "강원도 삼척시 근덕면 용화안길 81-6", "latitude": 0.0, "longtitude": 0.0, "bookmark": []}}, {"model": "places.place", "pk": 32, "fields": {"name": "글라스하우스", "address": "강원도 고성군 토성면 천진해변길 43", "latitude": 0.0, "longtitude": 0.0, "bookmark": []}}, {"model": "places.place", "pk": 33, "fields": {"name": "금호설악리조트", "address": "강원도 속초시 노학동 795-4", "latitude": 0.0, "longtitude": 0.0, "bookmark": []}}, {"model": "places.place", "pk": 34, "fields": {"name": "김유정역 폐역", "address": "강원도 춘천시 신동면 김유정로 1435", "latitude": 0.0, "longtitude": 0.0, "bookmark": []}}, {"model": "places.place", "pk": 35, "fields": {"name": "까사초당", "address": "강원도 강릉시 초당원길 69-1", "latitude": 0.0, "longtitude": 0.0, "bookmark": []}}, {"model": "places.place", "pk": 36, "fields": {"name": "꺼먹다리", "address": "강원도 화천군 화천읍 대이리 486-3", "latitude": 0.0, "longtitude": 0.0, "bookmark": []}}, {"model": "places.place", "pk": 37, "fields": {"name": "나디아민박", "address": "강원도 삼척시 근덕면 덕산해변길 144-6", "latitude": 0.0, "longtitude": 0.0, "bookmark": []}}, {"model": "places.place", "pk": 38, "fields": {"name": "나뽕남 본점", "address": "강원도 양양군 현남면 새나루길 9-8", "latitude": 0.0, "longtitude": 0.0, "bookmark": []}}, {"model": "places.place", "pk": 39, "fields": {"name": "나인원펜션", "address": "강원도 강릉시 안현로 114-12", "latitude": 0.0, "longtitude": 0.0, "bookmark": []}}, {"model": "places.place", "pk": 40, "fields": {"name": "낙산바다회마을", "address": "강원도 양양군 강현면 해맞이길 4", "latitude": 0.0, "longtitude": 0.0, "bookmark": []}}, {"model": "places.place", "pk": 41, "fields": {"name": "낙산해수욕장", "address": "강원도 양양군 강현면 해맞이길 59", "latitude": 0.0, "longtitude": 0.0, "bookmark": []}}, {"model": "places.place", "pk": 42, "fields": {"name": "남이섬", "address": "강원도 춘천시 남산면 남이섬길 1", "latitude": 0.0, "longtitude": 0.0, "bookmark": []}}, {"model": "places.place", "pk": 43, "fields": {"name": "남이섬 고목", "address": "강원도 춘천시 남산면 남이섬길 1", "latitude": 0.0, "longtitude": 0.0, "bookmark": []}}, {"model": "places.place", "pk": 44, "fields": {"name": "남이섬 섬향기", "address": "강원도 춘천시 남산면 남이섬길 1", "latitude": 0.0, "longtitude": 0.0, "bookmark": []}}, {"model": "places.place", "pk": 45, "fields": {"name": "남이섬 스윙까페 & 베이커리", "address": "강원도 춘천시 남산면 남이섬길 1", "latitude": 0.0, "longtitude": 0.0, "bookmark": []}}, {"model": "places.place", "pk": 46, "fields": {"name": "남이섬 투개더파크", "address": "강원도 춘천시 남산면 남이섬길 1", "latitude": 0.0, "longtitude": 0.0, "bookmark": []}}, {"model": "places.place", "pk": 47, "fields": {"name": "남이섬 호텔정관루", "address": "강원도 춘천시 남산면 남이섬길 1", "latitude": 0.0, "longtitude": 0.0, "bookmark": []}}, {"model": "places.place", "pk": 48, "fields": {"name": "너랑온펜션", "address": "강원도 동해시 망상길 42", "latitude": 0.0, "longtitude": 0.0, "bookmark": []}}, {"model": "places.place", "pk": 49, "fields": {"name": "노동당사", "address": "강원도 철원군 철원읍 금강산로 265", "latitude": 0.0, "longtitude": 0.0, "bookmark": []}}, {"model": "places.place", "pk": 50, "fields": {"name": "논골담길", "address": "강원도 동해시 일출로 97", "latitude": 0.0, "longtitude": 0.0, "bookmark": []}}, {"model": "places.place", "pk": 51, "fields": {"name": "단우물카페", "address": "강원도 춘천시 신북읍 신북로 323", "latitude": 0.0, "longtitude": 0.0, "bookmark": []}}, {"model": "places.place", "pk": 52, "fields": {"name": "대관령한우프라자", "address": "강원도 평창군 봉평면 무이진등길 37", "latitude": 0.0, "longtitude": 0.0, "bookmark": []}}, {"model": "places.place", "pk": 53, "fields": {"name": "대박이하우스", "address": "강원도 평창군 봉평면 진조2길 281-4", "latitude": 0.0, "longtitude": 0.0, "bookmark": []}}, {"model": "places.place", "pk": 54, "fields": {"name": "댕댕클럽", "address": "강원도 강릉시 사임당로 141 4층", "latitude": 0.0, "longtitude": 0.0, "bookmark": []}}, {"model": "places.place", "pk": 55, "fields": {"name": "댕숲", "address": "강원도 평창군 봉평면 석이바우길 92-34", "latitude": 0.0, "longtitude": 0.0, "bookmark": []}}, {"model": "places.place", "pk": 56, "fields": {"name": "댕카페", "address": "강원도 춘천시 남춘천로 61번길 6", "latitude": 0.0, "longtitude": 0.0, "bookmark": []}}, {"model": "places.place", "pk": 57, "fields": {"name": "더퍼피즈블루오션", "address": "강원도 양양군 강현면 동해대로 3411", "latitude": 0.0, "longtitude": 0.0, "bookmark": []}}, {"model": "places.place", "pk": 58, "fields": {"name": "도그밀리", "address": "강원도 평창군 방림면 감동지길 100", "latitude": 0.0, "longtitude": 0.0, "bookmark": []}}, {"model": "places.place", "pk": 59, "fields": {"name": "도그스테이블", "address": "강원도 춘천시 안마산로 294-30", "latitude": 0.0, "longtitude": 0.0, "bookmark": []}}, {"model": "places.place", "pk": 60, "fields": {"name": "동구래마을", "address": "강원도 화천군 하남면 호수길 329", "latitude": 0.0, "longtitude": 0.0, "bookmark": []}}, {"model": "places.place", "pk": 61, "fields": {"name": "동쪽바다프리미엄하우스", "address": "강원도 동해시 월소택지길 63-2", "latitude": 0.0, "longtitude": 0.0, "bookmark": []}}, {"model": "places.place", "pk": 62, "fields": {"name": "동해 글로리아펜션", "address": "강원도 동해시 망상길 49", "latitude": 0.0, "longtitude": 0.0, "bookmark": []}}, {"model": "places.place", "pk": 63, "fields": {"name": "둥개둥개", "address": "강원도 속초시 선산로2길 14", "latitude": 0.0, "longtitude": 0.0, "bookmark": []}}, {"model": "places.place", "pk": 64, "fields": {"name": "드라마 도깨비 촬영지", "address": "강원도 강릉시 주문진읍 해안로 1609", "latitude": 0.0, "longtitude": 0.0, "bookmark": []}}, {"model": "places.place", "pk": 65, "fields": {"name": "또멍냥", "address": "강원도 홍천군 홍천읍 연봉중앙로 50-1", "latitude": 0.0, "longtitude": 0.0, "bookmark": []}}, {"model": "places.place", "pk": 66, "fields": {"name": "또바기콘도펜션", "address": "강원도 정선군 남면 덕만길 5-19", "latitude": 0.0, "longtitude": 0.0, "bookmark": []}}, {"model": "places.place", "pk": 67, "fields": {"name": "라마다호텔&스위트평창", "address": "강원도 평창군 대관령면 오목길 107", "latitude": 0.0, "longtitude": 0.0, "bookmark": []}}, {"model": "places.place", "pk": 68, "fields": {"name": "라비앙펜션", "address": "강원도 평창군 봉평면 봉평북로 250-60", "latitude": 0.0, "longtitude": 0.0, "bookmark": []}}, {"model": "places.place", "pk": 69, "fields": {"name": "라이프위드도그", "address": "강원도 인제군 인제읍 자작나무숲길 1112", "latitude": 0.0, "longtitude": 0.0, "bookmark": []}}, {"model": "places.place", "pk": 70, "fields": {"name": "락있수다펜션", "address": "강원도 정선군 화암면 소금강로 2188", "latitude": 0.0, "longtitude": 0.0, "bookmark": []}}, {"model": "places.place", "pk": 71, "fields": {"name": "러빙네이쳐 갬핑장", "address": "강원도 인제군 남면 설악로 1129", "latitude": 0.0, "longtitude": 0.0, "bookmark": []}}, {"model": "places.place", "pk": 72, "fields": {"name": "로스터리 카페 더웨이", "address": "강원도 춘천시 신동면 풍류1길 72", "latitude": 0.0, "longtitude": 0.0, "bookmark": []}}, {"model": "places.place", "pk": 73, "fields": {"name": "루체", "address": "강원도 원주시 판부면 매봉길 16-4 1층", "latitude": 0.0, "longtitude": 0.0, "bookmark": []}}, {"model": "places.place", "pk": 74, "fields": {"name": "르꼬따쥬", "address": "강원도 강릉시 한밭골길 50-11", "latitude": 0.0, "longtitude": 0.0, "bookmark": []}}, {"model": "places.place", "pk": 75, "fields": {"name": "리버웍펜션", "address": "강원도 춘천시 남산면 북한강변길 840", "latitude": 0.0, "longtitude": 0.0, "bookmark": []}}, {"model": "places.place", "pk": 76, "fields": {"name": "마린데크", "address": "강원도 삼척시 새천녀도로 326", "latitude": 0.0, "longtitude": 0.0, "bookmark": []}}, {"model": "places.place", "pk": 77, "fields": {"name": "마마타타", "address": "강원도 강릉시 결포로 33-25 2층", "latitude": 0.0, "longtitude": 0.0, "bookmark": []}}, {"model": "places.place", "pk": 78, "fields": {"name": "마운틴밸리펜션", "address": "강원도 철원군 동송읍 담터길 174", "latitude": 0.0, "longtitude": 0.0, "bookmark": []}}, {"model": "places.place", "pk": 79, "fields": {"name": "맑은물리조트", "address": "강원도 인제군 기린면 내린천로 4723", "latitude": 0.0, "longtitude": 0.0, "bookmark": []}}, {"model": "places.place", "pk": 80, "fields": {"name": "망상펜션", "address": "강원도 동해시 망상길 45-1", "latitude": 0.0, "longtitude": 0.0, "bookmark": []}}, {"model": "places.place", "pk": 81, "fields": {"name": "머구리횟집", "address": "강원도 속초시 대포항희망 1길 89-2", "latitude": 0.0, "longtitude": 0.0, "bookmark": []}}, {"model": "places.place", "pk": 82, "fields": {"name": "멋 갤러리카페", "address": "강원도 춘천시 남춘천로 55번길 14", "latitude": 0.0, "longtitude": 0.0, "bookmark": []}}, {"model": "places.place", "pk": 83, "fields": {"name": "멍비치", "address": "강원도 양양군 현남면 광진리 78-20", "latitude": 0.0, "longtitude": 0.0, "bookmark": []}}, {"model": "places.place", "pk": 84, "fields": {"name": "메밀골동해막국수강문점", "address": "강원도 강릉시 창해로 350번길 25 1층", "latitude": 0.0, "longtitude": 0.0, "bookmark": []}}, {"model": "places.place", "pk": 85, "fields": {"name": "메이힐스리조트", "address": "강원도 정선군 고한읍 물한리길 8", "latitude": 0.0, "longtitude": 0.0, "bookmark": []}}, {"model": "places.place", "pk": 86, "fields": {"name": "명파해변", "address": "강원도 고성군 현내면 명파리 230-29", "latitude": 0.0, "longtitude": 0.0, "bookmark": []}}, {"model": "places.place", "pk": 87, "fields": {"name": "명파해변 오토캠핑장", "address": "강원도 고성군 현내면 명파4길 47", "latitude": 0.0, "longtitude": 0.0, "bookmark": []}}, {"model": "places.place", "pk": 88, "fields": {"name": "모래시계공원", "address": "강원도 강릉시 강동면 정동진리 6-2", "latitude": 0.0, "longtitude": 0.0, "bookmark": []}}, {"model": "places.place", "pk": 89, "fields": {"name": "몬띠마르펜션", "address": "강원도 양양군 강현면 진미로 510-36", "latitude": 0.0, "longtitude": 0.0, "bookmark": []}}, {"model": "places.place", "pk": 90, "fields": {"name": "물길로", "address": "강원도 춘천시 송암동 684", "latitude": 0.0, "longtitude": 0.0, "bookmark": []}}, {"model": "places.place", "pk": 91, "fields": {"name": "물레방아식당", "address": "강원도 양양군 서면 설악로 1417-7", "latitude": 0.0, "longtitude": 0.0, "bookmark": []}}, {"model": "places.place", "pk": 92, "fields": {"name": "미산분교갬핑장", "address": "강원도 인제군 상남면 래린천로 1622", "latitude": 0.0, "longtitude": 0.0, "bookmark": []}}, {"model": "places.place", "pk": 93, "fields": {"name": "미픽펍", "address": "강원도 고성군 죽왕면 삼포해변길 11-8", "latitude": 0.0, "longtitude": 0.0, "bookmark": []}}, {"model": "places.place", "pk": 94, "fields": {"name": "민둘산", "address": "강원도 정선군 남면 민둥산로 12", "latitude": 0.0, "longtitude": 0.0, "bookmark": []}}, {"model": "places.place", "pk": 95, "fields": {"name": "바다와 펜션", "address": "강원도 강릉시 사천면 해안로 1081", "latitude": 0.0, "longtitude": 0.0, "bookmark": []}}, {"model": "places.place", "pk": 96, "fields": {"name": "바다향기펜션", "address": "강원도 속초시 해오름로 13", "latitude": 0.0, "longtitude": 0.0, "bookmark": []}}, {"model": "places.place", "pk": 97, "fields": {"name": "반계리 은행나무", "address": "강원도 원주시 문막읍 반계리 1495-1", "latitude": 0.0, "longtitude": 0.0, "bookmark": []}}, {"model": "places.place", "pk": 98, "fields": {"name": "반디하우스", "address": "강원도 인제군 상남면 내린천로 2355", "latitude": 0.0, "longtitude": 0.0, "bookmark": []}}, {"model": "places.place", "pk": 99, "fields": {"name": "발렌타인애견펜션", "address": "강원도 양양군 손양면 남대천로 251-117", "latitude": 0.0, "longtitude": 0.0, "bookmark": []}}, {"model": "places.place", "pk": 100, "fields": {"name": "발바닥 애견카페", "address": "강원도 춘천시 동내면 거두길 26", "latitude": 0.0, "longtitude": 0.0, "bookmark": []}}, {"model": "places.place", "pk": 101, "fields": {"name": "방태산솔마루오토캠핑장", "address": "강원도 인제군 기린면 방태산길 122-6", "latitude": 0.0, "longtitude": 0.0, "bookmark": []}}, {"model": "places.place", "pk": 102, "fields": {"name": "별빛반려견 놀이터", "address": "강원도 영월군 영월읍 남면 연당로 61", "latitude": 0.0, "longtitude": 0.0, "bookmark": []}}, {"model": "places.place", "pk": 103, "fields": {"name": "보노페션", "address": "강원도 양양군 손양면 선사유적로 240-29", "latitude": 0.0, "longtitude": 0.0, "bookmark": []}}, {"model": "places.place", "pk": 104, "fields": {"name": "보리네민박", "address": "강원도 인제군 인제읍 자작나무숲길 1061-2", "latitude": 0.0, "longtitude": 0.0, "bookmark": []}}, {"model": "places.place", "pk": 105, "fields": {"name": "보물섬캠핑장", "address": "강원도 평창군 봉편면 거품소길 349-6", "latitude": 0.0, "longtitude": 0.0, "bookmark": []}}, {"model": "places.place", "pk": 106, "fields": {"name": "보스의 하루", "address": "강원도 영월군 영월읍 단종로 16번길 45", "latitude": 0.0, "longtitude": 0.0, "bookmark": []}}, {"model": "places.place", "pk": 107, "fields": {"name": "봄여름가을겨울", "address": "강원도 평창군 봉평면 거품소길 269", "latitude": 0.0, "longtitude": 0.0, "bookmark": []}}, {"model": "places.place", "pk": 108, "fields": {"name": "봉쥬르펜션", "address": "강원도 평창군 봉평면 석이바우길 92-34", "latitude": 0.0, "longtitude": 0.0, "bookmark": []}}, {"model": "places.place", "pk": 109, "fields": {"name": "북극곰 야영장", "address": "강원도 평창군 봉평면 흥정계곡길 313-3", "latitude": 0.0, "longtitude": 0.0, "bookmark": []}}, {"model": "places.place", "pk": 110, "fields": {"name": "붕어섬", "address": "강원도 화천군 화천읍 하리 165", "latitude": 0.0, "longtitude": 0.0, "bookmark": []}}, {"model": "places.place", "pk": 111, "fields": {"name": "브라질", "address": "강원도 강릉시 연곡면 해안로 1439", "latitude": 0.0, "longtitude": 0.0, "bookmark": []}}, {"model": "places.place", "pk": 112, "fields": {"name": "블루앤펫", "address": "강원도 강릉시 창해로 350번길 25 블루앤펫", "latitude": 0.0, "longtitude": 0.0, "bookmark": []}}, {"model": "places.place", "pk": 113, "fields": {"name": "비안단테 펜션", "address": "강원도 춘천시 서면 금산2길 22-4", "latitude": 0.0, "longtitude": 0.0, "bookmark": []}}, {"model": "places.place", "pk": 114, "fields": {"name": "비안단테펜션", "address": "강원도 원주시 부론면 부론로 285-5", "latitude": 0.0, "longtitude": 0.0, "bookmark": []}}, {"model": "places.place", "pk": 115, "fields": {"name": "비치얼스", "address": "강원도 양양군 현북면 하조대4길 32", "latitude": 0.0, "longtitude": 0.0, "bookmark": []}}, {"model": "places.place", "pk": 116, "fields": {"name": "빵공장 라뜰리에 김가", "address": "강원도 원주시 행구로 314", "latitude": 0.0, "longtitude": 0.0, "bookmark": []}}, {"model": "places.place", "pk": 117, "fields": {"name": "삐삐라떼", "address": "강원도 동해시 전천로 235-21 1층", "latitude": 0.0, "longtitude": 0.0, "bookmark": []}}, {"model": "places.place", "pk": 118, "fields": {"name": "사농동334", "address": "강원도 춘천시 영서로 2949-13", "latitude": 0.0, "longtitude": 0.0, "bookmark": []}}, {"model": "places.place", "pk": 119, "fields": {"name": "사니다카페", "address": "강원도 원주시 호저면 칠봉로 109-128", "latitude": 0.0, "longtitude": 0.0, "bookmark": []}}, {"model": "places.place", "pk": 120, "fields": {"name": "사진정원", "address": "강원도 원주시 소초면 황골로 426", "latitude": 0.0, "longtitude": 0.0, "bookmark": []}}, {"model": "places.place", "pk": 121, "fields": {"name": "삼척해양레일바이크", "address": "강원도 삼척시 근덕면 공양왕길 3", "latitude": 0.0, "longtitude": 0.0, "bookmark": []}}, {"model": "places.place", "pk": 122, "fields": {"name": "샘토명물닭갈비", "address": "강원도 춘천시 신북읍 신샘밭로 729", "latitude": 0.0, "longtitude": 0.0, "bookmark": []}}, {"model": "places.place", "pk": 123, "fields": {"name": "샬레리조트", "address": "강원도 평창군 봉평면 석이바우길 71-20", "latitude": 0.0, "longtitude": 0.0, "bookmark": []}}, {"model": "places.place", "pk": 124, "fields": {"name": "서면카페", "address": "강원도 춘천시 서면 박사로 976", "latitude": 0.0, "longtitude": 0.0, "bookmark": []}}, {"model": "places.place", "pk": 125, "fields": {"name": "서어질리 연꽃단지", "address": "강원도 화천군 하남면 건너들길 97", "latitude": 0.0, "longtitude": 0.0, "bookmark": []}}, {"model": "places.place", "pk": 126, "fields": {"name": "서퍼스파라다이스 stay", "address": "강원도 양양군 현남면 인구길 60-11", "latitude": 0.0, "longtitude": 0.0, "bookmark": []}}, {"model": "places.place", "pk": 127, "fields": {"name": "설악 해맞이 공원", "address": "강원도 속초시 동해대로 3664", "latitude": 0.0, "longtitude": 0.0, "bookmark": []}}, {"model": "places.place", "pk": 128, "fields": {"name": "설악비치펜션", "address": "강원도 양양군 강현면 뒷나루2길 5-4", "latitude": 0.0, "longtitude": 0.0, "bookmark": []}}, {"model": "places.place", "pk": 129, "fields": {"name": "설악의 정원", "address": "강원도 고성군 토성면 용원로 595", "latitude": 0.0, "longtitude": 0.0, "bookmark": []}}, {"model": "places.place", "pk": 130, "fields": {"name": "세계주류마켓", "address": "강원도 춘천시 동내면 순환대로 632", "latitude": 0.0, "longtitude": 0.0, "bookmark": []}}, {"model": "places.place", "pk": 131, "fields": {"name": "세계평화의종공원", "address": "강원도 화천군 화천읍 평화로 3481-143", "latitude": 0.0, "longtitude": 0.0, "bookmark": []}}, {"model": "places.place", "pk": 132, "fields": {"name": "세레니타", "address": "강원도 강릉시 율곡로 3034", "latitude": 0.0, "longtitude": 0.0, "bookmark": []}}, {"model": "places.place", "pk": 133, "fields": {"name": "세인트존스호텔", "address": "강원도 강릉시 창해로 307", "latitude": 0.0, "longtitude": 0.0, "bookmark": []}}, {"model": "places.place", "pk": 134, "fields": {"name": "세인트존스호텔 파인 인피티티풀", "address": "강원도 강릉시 창해로 307", "latitude": 0.0, "longtitude": 0.0, "bookmark": []}}, {"model": "places.place", "pk": 135, "fields": {"name": "셰프스키친", "address": "강원도 홍천군 서면 한치골길 262", "latitude": 0.0, "longtitude": 0.0, "bookmark": []}}, {"model": "places.place", "pk": 136, "fields": {"name": "소노펫클럽앤리조트", "address": "강원도 홍천군 서면 한치골길 262", "latitude": 0.0, "longtitude": 0.0, "bookmark": []}}, {"model": "places.place", "pk": 137, "fields": {"name": "소양강댐", "address": "강원도 춘천시 신샘밭로 1128", "latitude": 0.0, "longtitude": 0.0, "bookmark": []}}, {"model": "places.place", "pk": 138, "fields": {"name": "속초시 반려견놀이터", "address": "강원도 속초시 장사동 산 38-4", "latitude": 0.0, "longtitude": 0.0, "bookmark": []}}, {"model": "places.place", "pk": 139, "fields": {"name": "솔길따라", "address": "강원도 춘천시 동면 도토골길 62", "latitude": 0.0, "longtitude": 0.0, "bookmark": []}}, {"model": "places.place", "pk": 140, "fields": {"name": "솔솔밀크티", "address": "강원도 동해시 망상길 43", "latitude": 0.0, "longtitude": 0.0, "bookmark": []}}, {"model": "places.place", "pk": 141, "fields": {"name": "솔치송어파티펜션", "address": "강원도 원주시 신림면 솔치안길 91", "latitude": 0.0, "longtitude": 0.0, "bookmark": []}}, {"model": "places.place", "pk": 142, "fields": {"name": "수한예", "address": "강원도 춘천시 동면 하일길 197", "latitude": 0.0, "longtitude": 0.0, "bookmark": []}}, {"model": "places.place", "pk": 143, "fields": {"name": "순수양떼목장", "address": "강원도 평창군 대관령면 오목길 111", "latitude": 0.0, "longtitude": 0.0, "bookmark": []}}, {"model": "places.place", "pk": 144, "fields": {"name": "숲속의 정원", "address": "강원도 고성군 죽왕면 곡실평길 332", "latitude": 0.0, "longtitude": 0.0, "bookmark": []}}, {"model": "places.place", "pk": 145, "fields": {"name": "숲속의집", "address": "강원도 양양군 현북면 어성전길 402", "latitude": 0.0, "longtitude": 0.0, "bookmark": []}}, {"model": "places.place", "pk": 146, "fields": {"name": "쉬러와", "address": "강원도 춘천시 신북읍 지내고탄로 246", "latitude": 0.0, "longtitude": 0.0, "bookmark": []}}, {"model": "places.place", "pk": 147, "fields": {"name": "스기다시천국", "address": "강원도 속초시 영랑해안길 11", "latitude": 0.0, "longtitude": 0.0, "bookmark": []}}, {"model": "places.place", "pk": 148, "fields": {"name": "스누피 애결카페", "address": "강원도 춘천시 동면 금옥길 132", "latitude": 0.0, "longtitude": 0.0, "bookmark": []}}, {"model": "places.place", "pk": 149, "fields": {"name": "스웨이", "address": "강원도 강릉시 경포로 489-6 2층", "latitude": 0.0, "longtitude": 0.0, "bookmark": []}}, {"model": "places.place", "pk": 150, "fields": {"name": "스퀘어루트카페", "address": "강원도 고성군 죽왕면 가향길 2-7", "latitude": 0.0, "longtitude": 0.0, "bookmark": []}}, {"model": "places.place", "pk": 151, "fields": {"name": "시즈온", "address": "강원도 원주시 양지뜰4길 1-2", "latitude": 0.0, "longtitude": 0.0, "bookmark": []}}, {"model": "places.place", "pk": 152, "fields": {"name": "시크릿가든", "address": "강원도 홍천군 화촌면 성산로 162", "latitude": 0.0, "longtitude": 0.0, "bookmark": []}}, {"model": "places.place", "pk": 153, "fields": {"name": "신나개 애션펜션", "address": "강원도 삼척시 근덕면 덕산해안로 78", "latitude": 0.0, "longtitude": 0.0, "bookmark": []}}, {"model": "places.place", "pk": 154, "fields": {"name": "신리광장", "address": "강원도 강릉시 주문진읍 신리천로 79", "latitude": 0.0, "longtitude": 0.0, "bookmark": []}}, {"model": "places.place", "pk": 155, "fields": {"name": "신북커피", "address": "강원도 춘천시 신북읍 신샘밭로 622-7", "latitude": 0.0, "longtitude": 0.0, "bookmark": []}}, {"model": "places.place", "pk": 156, "fields": {"name": "신영펜션", "address": "강원도 홍천군 서면 한치골길 75-12", "latitude": 0.0, "longtitude": 0.0, "bookmark": []}}, {"model": "places.place", "pk": 157, "fields": {"name": "신피디통큰", "address": "강원도 속초시 청초호반로 322", "latitude": 0.0, "longtitude": 0.0, "bookmark": []}}, {"model": "places.place", "pk": 158, "fields": {"name": "썸머키친", "address": "강원도 강릉시 죽헌길 67-6", "latitude": 0.0, "longtitude": 0.0, "bookmark": []}}, {"model": "places.place", "pk": 159, "fields": {"name": "쏠리오", "address": "강원도 춘천시 남산면 서천길 117", "latitude": 0.0, "longtitude": 0.0, "bookmark": []}}, {"model": "places.place", "pk": 160, "fields": {"name": "씨스포빌리조트", "address": "강원도 삼척시 근덕면 상맹방길 30-80", "latitude": 0.0, "longtitude": 0.0, "bookmark": []}}, {"model": "places.place", "pk": 161, "fields": {"name": "아기사자", "address": "강원도 원주시 지정면 오얏길 56", "latitude": 0.0, "longtitude": 0.0, "bookmark": []}}, {"model": "places.place", "pk": 162, "fields": {"name": "아나파우오", "address": "강원도 홍천군 화촌면 도광터길 208", "latitude": 0.0, "longtitude": 0.0, "bookmark": []}}, {"model": "places.place", "pk": 163, "fields": {"name": "아담하우스", "address": "강원도 양양군 강현면 주청2길 17", "latitude": 0.0, "longtitude": 0.0, "bookmark": []}}, {"model": "places.place", "pk": 164, "fields": {"name": "아들바위공원", "address": "강원도 강릉시 주문진읍 주문리 791-47", "latitude": 0.0, "longtitude": 0.0, "bookmark": []}}, {"model": "places.place", "pk": 165, "fields": {"name": "아라리공원", "address": "강원도 정선군 정선읍 봉양리 113", "latitude": 0.0, "longtitude": 0.0, "bookmark": []}}, {"model": "places.place", "pk": 166, "fields": {"name": "아라커피", "address": "강원도 고성군 죽왕면 공현진길 6", "latitude": 0.0, "longtitude": 0.0, "bookmark": []}}, {"model": "places.place", "pk": 167, "fields": {"name": "아를테마수목원", "address": "강원도 화천군 하남면 거례리 514-1", "latitude": 0.0, "longtitude": 0.0, "bookmark": []}}, {"model": "places.place", "pk": 168, "fields": {"name": "아름다운바다콘도텔", "address": "강원도 양양군 강현면 동해대로 3575", "latitude": 0.0, "longtitude": 0.0, "bookmark": []}}, {"model": "places.place", "pk": 169, "fields": {"name": "아름다운집", "address": "강원도 춘천시 남산면 북한강변길 826", "latitude": 0.0, "longtitude": 0.0, "bookmark": []}}, {"model": "places.place", "pk": 170, "fields": {"name": "아름들 반려견쉼터", "address": "강원도 원주시 흥업면 흥업리 222", "latitude": 0.0, "longtitude": 0.0, "bookmark": []}}, {"model": "places.place", "pk": 171, "fields": {"name": "아쇼카펜션", "address": "강원도 양양군 손양면 선사유적로 316-104", "latitude": 0.0, "longtitude": 0.0, "bookmark": []}}, {"model": "places.place", "pk": 172, "fields": {"name": "아침에새소리", "address": "강원도 평창군 봉평면 백운동길 60-6", "latitude": 0.0, "longtitude": 0.0, "bookmark": []}}, {"model": "places.place", "pk": 173, "fields": {"name": "아폴로천문대펜션", "address": "강원도 화천군 사내면 천문대길 79-8", "latitude": 0.0, "longtitude": 0.0, "bookmark": []}}, {"model": "places.place", "pk": 174, "fields": {"name": "양구꽃섬", "address": "강원도 양구군 양구읍 하리 570-1", "latitude": 0.0, "longtitude": 0.0, "bookmark": []}}, {"model": "places.place", "pk": 175, "fields": {"name": "양양캠핑장 어성전계곡야영장", "address": "강원도 양양군 현북면 어성전길 182-18", "latitude": 0.0, "longtitude": 0.0, "bookmark": []}}, {"model": "places.place", "pk": 176, "fields": {"name": "양양해피플레이스", "address": "강원도 양양군 강현면 중복골길 11", "latitude": 0.0, "longtitude": 0.0, "bookmark": []}}, {"model": "places.place", "pk": 177, "fields": {"name": "어도러블독", "address": "강원도 홍천군 홍천읍 홍천로 391", "latitude": 0.0, "longtitude": 0.0, "bookmark": []}}, {"model": "places.place", "pk": 178, "fields": {"name": "어반그린", "address": "강원도 춘처시 서면 박사로 732", "latitude": 0.0, "longtitude": 0.0, "bookmark": []}}, {"model": "places.place", "pk": 179, "fields": {"name": "엉클밥", "address": "강원도 강릉시 난설헌로 81-5", "latitude": 0.0, "longtitude": 0.0, "bookmark": []}}, {"model": "places.place", "pk": 180, "fields": {"name": "에페로애견펜션", "address": "강원도 홍천군 서면 한서로 2019", "latitude": 0.0, "longtitude": 0.0, "bookmark": []}}, {"model": "places.place", "pk": 181, "fields": {"name": "엠꼼마카롱", "address": "강원도 강릉시 경강로 2115번길 15", "latitude": 0.0, "longtitude": 0.0, "bookmark": []}}, {"model": "places.place", "pk": 182, "fields": {"name": "영원산성", "address": "강원도 원주시 판부면 영원산성길 685", "latitude": 0.0, "longtitude": 0.0, "bookmark": []}}, {"model": "places.place", "pk": 183, "fields": {"name": "영월한반도캠핑장", "address": "강원도 영월군 한반도면 후탄로 826", "latitude": 0.0, "longtitude": 0.0, "bookmark": []}}, {"model": "places.place", "pk": 184, "fields": {"name": "영진해변", "address": "강원도 강릉시 연곡면 영진리 72-2", "latitude": 0.0, "longtitude": 0.0, "bookmark": []}}, {"model": "places.place", "pk": 185, "fields": {"name": "예와생스튜디오카페", "address": "강원도 춘천시 동면 가산로 186-5", "latitude": 0.0, "longtitude": 0.0, "bookmark": []}}, {"model": "places.place", "pk": 186, "fields": {"name": "옛날초당순두부", "address": "강원도 강릉시 운정길 141", "latitude": 0.0, "longtitude": 0.0, "bookmark": []}}, {"model": "places.place", "pk": 187, "fields": {"name": "오대양수산", "address": "강원도 양양군 현북면 하조대해안길 11", "latitude": 0.0, "longtitude": 0.0, "bookmark": []}}, {"model": "places.place", "pk": 188, "fields": {"name": "오색그린야드호텔", "address": "강원도 양양군 서면 대청봉길 34", "latitude": 0.0, "longtitude": 0.0, "bookmark": []}}, {"model": "places.place", "pk": 189, "fields": {"name": "오션투유리조트", "address": "강원도 고성군 죽왕면 삼포해변길 9", "latitude": 0.0, "longtitude": 0.0, "bookmark": []}}, {"model": "places.place", "pk": 190, "fields": {"name": "오크카운티 펜션", "address": "강원도 원주시 지정면 구재로 352-4", "latitude": 0.0, "longtitude": 0.0, "bookmark": []}}, {"model": "places.place", "pk": 191, "fields": {"name": "옥산가", "address": "강원도 춘천시 동면 금옥길 228", "latitude": 0.0, "longtitude": 0.0, "bookmark": []}}, {"model": "places.place", "pk": 192, "fields": {"name": "와룽빠뜨릭", "address": "강원도 양양군 현남면 동산큰길 44-3", "latitude": 0.0, "longtitude": 0.0, "bookmark": []}}, {"model": "places.place", "pk": 193, "fields": {"name": "용산559", "address": "강원도 춘천시 신북읍 용산길 191-21", "latitude": 0.0, "longtitude": 0.0, "bookmark": []}}, {"model": "places.place", "pk": 194, "fields": {"name": "우밀타", "address": "강원도 원주시 양지뜰4길 6 1층", "latitude": 0.0, "longtitude": 0.0, "bookmark": []}}, {"model": "places.place", "pk": 195, "fields": {"name": "월드스카이호텔", "address": "강원도 속초시 청초호반로 267", "latitude": 0.0, "longtitude": 0.0, "bookmark": []}}, {"model": "places.place", "pk": 196, "fields": {"name": "월화거리", "address": "강원도 강릉시 금성로 11번길 9", "latitude": 0.0, "longtitude": 0.0, "bookmark": []}}, {"model": "places.place", "pk": 197, "fields": {"name": "유기농카페", "address": "강원도 춘처시 신북읍 지내고탄로 184", "latitude": 0.0, "longtitude": 0.0, "bookmark": []}}, {"model": "places.place", "pk": 198, "fields": {"name": "유알마인", "address": "강원도 원주시 지정면 지정로 912", "latitude": 0.0, "longtitude": 0.0, "bookmark": []}}, {"model": "places.place", "pk": 199, "fields": {"name": "유알풀빌라펜션", "address": "강원도 원주시 지정면 지정록 912-1", "latitude": 0.0, "longtitude": 0.0, "bookmark": []}}, {"model": "places.place", "pk": 200, "fields": {"name": "윤스빈", "address": "강원도 영월군 영월읍 분수대길 64", "latitude": 0.0, "longtitude": 0.0, "bookmark": []}}, {"model": "places.place", "pk": 201, "fields": {"name": "은하수교", "address": "강원도 철원군 동송읍 장흥리 752-12", "latitude": 0.0, "longtitude": 0.0, "bookmark": []}}, {"model": "places.place", "pk": 202, "fields": {"name": "인더가든", "address": "강원도 인제군 남면 삼팔선로 2115", "latitude": 0.0, "longtitude": 0.0, "bookmark": []}}, {"model": "places.place", "pk": 203, "fields": {"name": "인디언독", "address": "강원도 춘천시 동면 만천양지길 147-1", "latitude": 0.0, "longtitude": 0.0, "bookmark": []}}, {"model": "places.place", "pk": 204, "fields": {"name": "정동진", "address": "강원도 강릉시 강동면 정동역길 17", "latitude": 0.0, "longtitude": 0.0, "bookmark": []}}, {"model": "places.place", "pk": 205, "fields": {"name": "정선 레일바이크", "address": "강원도 정선군 여량면 노추산로 745", "latitude": 0.0, "longtitude": 0.0, "bookmark": []}}, {"model": "places.place", "pk": 206, "fields": {"name": "정선 병방치 스카이워크", "address": "강원도 정선군 정선읍 병방치길 225", "latitude": 0.0, "longtitude": 0.0, "bookmark": []}}, {"model": "places.place", "pk": 207, "fields": {"name": "정선황토펜션", "address": "강원도 정선군 정선읍 병방치길 35-18", "latitude": 0.0, "longtitude": 0.0, "bookmark": []}}, {"model": "places.place", "pk": 208, "fields": {"name": "정원가든 애견동반펜션", "address": "강원도 삼척시 근덕면 용화안길 225-1", "latitude": 0.0, "longtitude": 0.0, "bookmark": []}}, {"model": "places.place", "pk": 209, "fields": {"name": "조양펜션", "address": "강원도 속초시 동해대로 3950번길 15", "latitude": 0.0, "longtitude": 0.0, "bookmark": []}}, {"model": "places.place", "pk": 210, "fields": {"name": "죽도해수욕장", "address": "강원도 양양군 현남면 시변리 33-38", "latitude": 0.0, "longtitude": 0.0, "bookmark": []}}, {"model": "places.place", "pk": 211, "fields": {"name": "직탕폭포", "address": "강원도 철원군 동송읍 장릉리", "latitude": 0.0, "longtitude": 0.0, "bookmark": []}}, {"model": "places.place", "pk": 212, "fields": {"name": "청옥산 깨비마을 캠핑장", "address": "강원도 평창군 미탄면 수리재길 21", "latitude": 0.0, "longtitude": 0.0, "bookmark": []}}, {"model": "places.place", "pk": 213, "fields": {"name": "초이랑", "address": "강원도 춘천시 신북읍 배후령길 11", "latitude": 0.0, "longtitude": 0.0, "bookmark": []}}, {"model": "places.place", "pk": 214, "fields": {"name": "추암대게", "address": "강원도 동해시 촛대바위길 18", "latitude": 0.0, "longtitude": 0.0, "bookmark": []}}, {"model": "places.place", "pk": 215, "fields": {"name": "추암조각공원", "address": "강원도 동해시 추암동 산72", "latitude": 0.0, "longtitude": 0.0, "bookmark": []}}, {"model": "places.place", "pk": 216, "fields": {"name": "추암촛대바위", "address": "강원도 동해시 촛대바위길 17-1", "latitude": 0.0, "longtitude": 0.0, "bookmark": []}}, {"model": "places.place", "pk": 217, "fields": {"name": "춘천 물레길", "address": "강원도 춘천시 스포츠타운길 113-1", "latitude": 0.0, "longtitude": 0.0, "bookmark": []}}, {"model": "places.place", "pk": 218, "fields": {"name": "춘천댐", "address": "강원도 춘천시 서면 오월리", "latitude": 0.0, "longtitude": 0.0, "bookmark": []}}, {"model": "places.place", "pk": 219, "fields": {"name": "춘천숲자연휴양림캠핑장", "address": "강원도 춘천시 동산면 종자리로 224-104", "latitude": 0.0, "longtitude": 0.0, "bookmark": []}}, {"model": "places.place", "pk": 220, "fields": {"name": "춘천의암호스카이워크", "address": "강원도 춘천시 칠전동 485", "latitude": 0.0, "longtitude": 0.0, "bookmark": []}}, {"model": "places.place", "pk": 221, "fields": {"name": "카리스펜션", "address": "강원도 강릉시 연곡면 해안로 1279", "latitude": 0.0, "longtitude": 0.0, "bookmark": []}}, {"model": "places.place", "pk": 222, "fields": {"name": "카페 까만콩", "address": "강원도 홍천군 홍천읍 홍천로 666-1", "latitude": 0.0, "longtitude": 0.0, "bookmark": []}}, {"model": "places.place", "pk": 223, "fields": {"name": "카페 위드민", "address": "강원도 원주시 양월길 47 1층", "latitude": 0.0, "longtitude": 0.0, "bookmark": []}}, {"model": "places.place", "pk": 224, "fields": {"name": "카페견로당", "address": "강원도 인제군 인제읍 자작나무숲길 1061-5", "latitude": 0.0, "longtitude": 0.0, "bookmark": []}}, {"model": "places.place", "pk": 225, "fields": {"name": "카페나스", "address": "강원도 춘천시 신북읍 신샘밭로 706-8", "latitude": 0.0, "longtitude": 0.0, "bookmark": []}}, {"model": "places.place", "pk": 226, "fields": {"name": "카페너니", "address": "강원도 춘천시 효석로 129", "latitude": 0.0, "longtitude": 0.0, "bookmark": []}}, {"model": "places.place", "pk": 227, "fields": {"name": "카페도즈오프", "address": "강원도 원주시 신림면 신림황둔로 1060", "latitude": 0.0, "longtitude": 0.0, "bookmark": []}}, {"model": "places.place", "pk": 228, "fields": {"name": "카페독스", "address": "강원도 철원군 동송읍 이평로 91", "latitude": 0.0, "longtitude": 0.0, "bookmark": []}}, {"model": "places.place", "pk": 229, "fields": {"name": "카페루아", "address": "강원도 강릉시 주문진읍 아래강정길 8-47", "latitude": 0.0, "longtitude": 0.0, "bookmark": []}}, {"model": "places.place", "pk": 230, "fields": {"name": "카페뮤지스", "address": "강원도 영월군 영월읍 은행나무길 90", "latitude": 0.0, "longtitude": 0.0, "bookmark": []}}, {"model": "places.place", "pk": 231, "fields": {"name": "카페서락", "address": "강원도 고성군 토성면 용원로 595", "latitude": 0.0, "longtitude": 0.0, "bookmark": []}}, {"model": "places.place", "pk": 232, "fields": {"name": "카페캐빈", "address": "강원도 춘천시 남면 버들길 60-7", "latitude": 0.0, "longtitude": 0.0, "bookmark": []}}, {"model": "places.place", "pk": 233, "fields": {"name": "커피베이", "address": "강원도 영월군 영월읍 중앙로 32", "latitude": 0.0, "longtitude": 0.0, "bookmark": []}}, {"model": "places.place", "pk": 234, "fields": {"name": "커피정원", "address": "강원도 삼척시 오십천로 566", "latitude": 0.0, "longtitude": 0.0, "bookmark": []}}, {"model": "places.place", "pk": 235, "fields": {"name": "케렌시아펜션", "address": "강원도 철원군 동송읍 창동로 2282", "latitude": 0.0, "longtitude": 0.0, "bookmark": []}}, {"model": "places.place", "pk": 236, "fields": {"name": "쿠피멍스터", "address": "강원도 춘천시 춘천로 185번길 15 1층", "latitude": 0.0, "longtitude": 0.0, "bookmark": []}}, {"model": "places.place", "pk": 237, "fields": {"name": "키크러스커피", "address": "강원도 강릉시 창해로 14번길 48-1", "latitude": 0.0, "longtitude": 0.0, "bookmark": []}}, {"model": "places.place", "pk": 238, "fields": {"name": "탑스텐리조트 동강시스타", "address": "강원도 영월군 영월읍 사지막길 160", "latitude": 0.0, "longtitude": 0.0, "bookmark": []}}, {"model": "places.place", "pk": 239, "fields": {"name": "통일전망대", "address": "강원도 고성군 현내면 금강산로 481", "latitude": 0.0, "longtitude": 0.0, "bookmark": []}}, {"model": "places.place", "pk": 240, "fields": {"name": "파로호 하트섬", "address": "강원도 화천군 간동면 도송리 481", "latitude": 0.0, "longtitude": 0.0, "bookmark": []}}, {"model": "places.place", "pk": 241, "fields": {"name": "파머스가든", "address": "강원도 춘천시 신북읍 신샘밭로 380", "latitude": 0.0, "longtitude": 0.0, "bookmark": []}}, {"model": "places.place", "pk": 242, "fields": {"name": "파인트리 캠핑장", "address": "강원도 정선군 남면 광락로 349-30", "latitude": 0.0, "longtitude": 0.0, "bookmark": []}}, {"model": "places.place", "pk": 243, "fields": {"name": "파인힐 애견펜션", "address": "강원도 강릉시 연곡면 동해대로 4371-27", "latitude": 0.0, "longtitude": 0.0, "bookmark": []}}, {"model": "places.place", "pk": 244, "fields": {"name": "퍼피쿵", "address": "강원도 춘천시 안마산로 34-17", "latitude": 0.0, "longtitude": 0.0, "bookmark": []}}, {"model": "places.place", "pk": 245, "fields": {"name": "페타운", "address": "강원도 원주시 판부면 치악로 1071", "latitude": 0.0, "longtitude": 0.0, "bookmark": []}}, {"model": "places.place", "pk": 246, "fields": {"name": "페트리코펜션", "address": "강원도 양양군 손양면 선사유적로 244", "latitude": 0.0, "longtitude": 0.0, "bookmark": []}}, {"model": "places.place", "pk": 247, "fields": {"name": "펜션 숲속하얀뜰", "address": "강원도 평창군 봉평면 석이바우길 92-28", "latitude": 0.0, "longtitude": 0.0, "bookmark": []}}, {"model": "places.place", "pk": 248, "fields": {"name": "펜션지아니", "address": "강원도 강릉시 강동면 정동3길 32-11", "latitude": 0.0, "longtitude": 0.0, "bookmark": []}}, {"model": "places.place", "pk": 249, "fields": {"name": "평창듀오애견수영장계곡펜션", "address": "강원도 평창군 방림면 감동지길 116-4", "latitude": 0.0, "longtitude": 0.0, "bookmark": []}}, {"model": "places.place", "pk": 250, "fields": {"name": "평화의댐", "address": "강원도 화천군 화천읍 평화로 3481-18", "latitude": 0.0, "longtitude": 0.0, "bookmark": []}}, {"model": "places.place", "pk": 251, "fields": {"name": "풀내음", "address": "강원도 평창군 봉평면 메밀꽃길 13", "latitude": 0.0, "longtitude": 0.0, "bookmark": []}}, {"model": "places.place", "pk": 252, "fields": {"name": "풍어횟집", "address": "강원도 고성군 죽왕면 심층수길 40-12", "latitude": 0.0, "longtitude": 0.0, "bookmark": []}}, {"model": "places.place", "pk": 253, "fields": {"name": "프렌즈애견펜션", "address": "강원도 강릉시 하남길 117-4", "latitude": 0.0, "longtitude": 0.0, "bookmark": []}}, {"model": "places.place", "pk": 254, "fields": {"name": "프로방스 카페", "address": "강원도 철원군 갈말읍 순담길 299", "latitude": 0.0, "longtitude": 0.0, "bookmark": []}}, {"model": "places.place", "pk": 255, "fields": {"name": "피오레", "address": "강원도 동해시 평원1길 120", "latitude": 0.0, "longtitude": 0.0, "bookmark": []}}, {"model": "places.place", "pk": 256, "fields": {"name": "하늘풍경펜션", "address": "강원도 춘천시 남산면 갯골길 178", "latitude": 0.0, "longtitude": 0.0, "bookmark": []}}, {"model": "places.place", "pk": 257, "fields": {"name": "하루숯불생고기", "address": "강원도 춘천시 세실로 100-32", "latitude": 0.0, "longtitude": 0.0, "bookmark": []}}, {"model": "places.place", "pk": 258, "fields": {"name": "하슬라아트월드", "address": "강원도 강릉시 강동면 율곡로 1441", "latitude": 0.0, "longtitude": 0.0, "bookmark": []}}, {"model": "places.place", "pk": 259, "fields": {"name": "하얀멍이애견펜션", "address": "강원도 양양군 서면 들돌길 207", "latitude": 0.0, "longtitude": 0.0, "bookmark": []}}, {"model": "places.place", "pk": 260, "fields": {"name": "하얀여울캠프", "address": "강원도 영월군 무릉도원면 무릉법흥로 932", "latitude": 0.0, "longtitude": 0.0, "bookmark": []}}, {"model": "places.place", "pk": 261, "fields": {"name": "하이봉자", "address": "강원도 원주시 소초면 황골로 269-23", "latitude": 0.0, "longtitude": 0.0, "bookmark": []}}, {"model": "places.place", "pk": 262, "fields": {"name": "하이하늘펜션", "address": "강원도 정선군 고한읍 고토일길 275", "latitude": 0.0, "longtitude": 0.0, "bookmark": []}}, {"model": "places.place", "pk": 263, "fields": {"name": "하조대아름들펜션", "address": "강원도 양양군 현북면 검소길 111", "latitude": 0.0, "longtitude": 0.0, "bookmark": []}}, {"model": "places.place", "pk": 264, "fields": {"name": "하조대전망대", "address": "강원도 양양군 현북면 하륜길 54", "latitude": 0.0, "longtitude": 0.0, "bookmark": []}}, {"model": "places.place", "pk": 265, "fields": {"name": "하조대해수욕장", "address": "강원도 양양군 현북면 하광정리 80-2", "latitude": 0.0, "longtitude": 0.0, "bookmark": []}}, {"model": "places.place", "pk": 266, "fields": {"name": "학조리샘말펜션", "address": "강원도 양구군 양구읍 학안로 97-21", "latitude": 0.0, "longtitude": 0.0, "bookmark": []}}, {"model": "places.place", "pk": 267, "fields": {"name": "한반도섬 자연습지", "address": "강원도 양구군 양구읍 한반도섬길 76", "latitude": 0.0, "longtitude": 0.0, "bookmark": []}}, {"model": "places.place", "pk": 268, "fields": {"name": "해녀횟집", "address": "강원도 양양군 현만면 매바위길 163", "latitude": 0.0, "longtitude": 0.0, "bookmark": []}}, {"model": "places.place", "pk": 269, "fields": {"name": "해마루 펜션", "address": "강원도 삼척시 근덕면 장호1길 27", "latitude": 0.0, "longtitude": 0.0, "bookmark": []}}, {"model": "places.place", "pk": 270, "fields": {"name": "해피리버펜션", "address": "강원 춘천시 남산면 홍천강변길 410", "latitude": 0.0, "longtitude": 0.0, "bookmark": []}}, {"model": "places.place", "pk": 271, "fields": {"name": "해피몽펜션", "address": "강원도 강릉시 성산면 삼왕길 171-13", "latitude": 0.0, "longtitude": 0.0, "bookmark": []}}, {"model": "places.place", "pk": 272, "fields": {"name": "행구수변공원", "address": "강원도 원주시 행구로 362", "latitude": 0.0, "longtitude": 0.0, "bookmark": []}}, {"model": "places.place", "pk": 273, "fields": {"name": "헤븐리파크도그스", "address": "강원도 춘천시 동면 순환대로 1156-20", "latitude": 0.0, "longtitude": 0.0, "bookmark": []}}, {"model": "places.place", "pk": 274, "fields": {"name": "헤이춘천", "address": "강원도 춘천시 남춘천로 49", "latitude": 0.0, "longtitude": 0.0, "bookmark": []}}, {"model": "places.place", "pk": 275, "fields": {"name": "헬로우씨카페", "address": "강원도 고성군 죽왕면 괘진길 53-11", "latitude": 0.0, "longtitude": 0.0, "bookmark": []}}, {"model": "places.place", "pk": 276, "fields": {"name": "홀리데이인 스위트 알펜시아", "address": "강원도 평창군 대관령면 솔봉로 325", "latitude": 0.0, "longtitude": 0.0, "bookmark": []}}, {"model": "places.place", "pk": 277, "fields": {"name": "홍시", "address": "강원도 홍천군 서면 한서로 1774", "latitude": 0.0, "longtitude": 0.0, "bookmark": []}}, {"model": "places.place", "pk": 278, "fields": {"name": "화이어드커피", "address": "강원도 춘천시 도앤면 순환대로 632 1층", "latitude": 0.0, "longtitude": 0.0, "bookmark": []}}, {"model": "places.place", "pk": 279, "fields": {"name": "화이트샌드펜션", "address": "강원도 양양군 현남면 새나루길 31", "latitude": 0.0, "longtitude": 0.0, "bookmark": []}}, {"model": "places.place", "pk": 280, "fields": {"name": "화이트크로우 탭하우스", "address": "강원도 강릉시 관솔길 12번길 14-3", "latitude": 0.0, "longtitude": 0.0, "bookmark": []}}, {"model": "places.place", "pk": 281, "fields": {"name": "화이트클라우드", "address": "강원도 원주시 판부면 백운정윗길 27", "latitude": 0.0, "longtitude": 0.0, "bookmark": []}}, {"model": "places.place", "pk": 282, "fields": {"name": "화진포의 성 김일성 별장", "address": "강원도 고성군 거진읍 화진포길 280033-680-3469", "latitude": 0.0, "longtitude": 0.0, "bookmark": []}}, {"model": "places.place", "pk": 283, "fields": {"name": "화천써비스펜션", "address": "강원도 화천군 하남면 춘화로 2861-10", "latitude": 0.0, "longtitude": 0.0, "bookmark": []}}, {"model": "places.place", "pk": 284, "fields": {"name": "화천써비스허브정원카페화천", "address": "강원도 화천군 하남면 춘화로 2861-10", "latitude": 0.0, "longtitude": 0.0, "bookmark": []}}, {"model": "places.place", "pk": 285, "fields": {"name": "황토민박펜션", "address": "강원도 동해시 분토길 188-7", "latitude": 0.0, "longtitude": 0.0, "bookmark": []}}, {"model": "places.place", "pk": 286, "fields": {"name": "횡성고양한우", "address": "강원도 원주시 지정면 질마재로 49", "latitude": 0.0, "longtitude": 0.0, "bookmark": []}}, {"model": "places.place", "pk": 287, "fields": {"name": "횡성로그캐빈팬션", "address": "강원도 횡성군 둔내면 고원로 425번길 33", "latitude": 0.0, "longtitude": 0.0, "bookmark": []}}, {"model": "places.place", "pk": 288, "fields": {"name": "휘닉스파크평창리조트", "address": "강원도 평창군 봉평면 태기로 174", "latitude": 0.0, "longtitude": 0.0, "bookmark": []}}, {"model": "places.place", "pk": 289, "fields": {"name": "휘바핀란드", "address": "강원도 홍천군 서면 팔봉산로 368", "latitude": 0.0, "longtitude": 0.0, "bookmark": []}}, {"model": "places.place", "pk": 290, "fields": {"name": "힐리언스 선마을", "address": "강원도 홍천군 서면 종자산길 122", "latitude": 0.0, "longtitude": 0.0, "bookmark": []}}, {"model": "places.place", "pk": 291, "fields": {"name": "힐링캠프 애견동반 펜션", "address": "강원도 삼척시 근덕면 용화안길 14", "latitude": 0.0, "longtitude": 0.0, "bookmark": []}}]